[["Chandrapuri Colony, Mathura, Uttar Pradesh, India",{"value":{"location":{"type":"Point","coordinates":[77.67222389999999,27.463623]},"description":"Chandrapuri Colony, Mathura, Uttar Pradesh, India","place_id":"ChIJN7G5wbR2czkRh9UJIIWntT8"}}],["17km Stone, NH-2, Mathura-Delhi Road Mathura, Chaumuhan, Bharthia, Uttar Pradesh 281406, India",{"value":{"location":{"type":"Point","coordinates":[77.5933245,27.6056887]},"description":"17km Stone, NH-2, Mathura-Delhi Road Mathura, Chaumuhan, Bharthia, Uttar Pradesh 281406, India","place_id":"ChIJOcD_e-RsczkRQWMsqT385Q8"}}],["Terminal 3, Delhi 110037",{"value":{"location":{"type":"Point","coordinates":[77.0844015,28.5550838]},"description":"Terminal 3, Delhi 110037","place_id":"ChIJ30iik5kbDTkRZ_0X9stU-Sg"}}],["Pondicherry University, Chinna Kalapet, Kalapet, Puducherry 605014, India",{"value":{"location":{"type":"Point","coordinates":[79.8568461,12.0182619]},"description":"Pondicherry University, Chinna Kalapet, Kalapet, Puducherry 605014, India","place_id":"ChIJWXnloXZhUzoRul7TO_m8wvk"}}],["Lakdikapul, Hyderabad, Telangana 500004, India",{"value":{"location":{"type":"Point","coordinates":[78.4627103,17.3992721]},"description":"Lakdikapul, Hyderabad, Telangana 500004, India","place_id":"ChIJ5zN_0WuXyzsR0qoIIGeNKdI"}}],["Dhauli Pyau, Hanuman Nagar, Mathura, Uttar Pradesh 281001, India",{"value":{"location":{"type":"Point","coordinates":[77.67557839999999,27.4699887]},"description":"Dhauli Pyau, Hanuman Nagar, Mathura, Uttar Pradesh 281001, India","place_id":"ChIJffHK7EpxczkRK7L9lCQ7E4I"}}],["Fatehpur Sikri, Uttar Pradesh 283110, India",{"value":{"location":{"type":"Point","coordinates":[77.6679292,27.0945291]},"description":"Fatehpur Sikri, Uttar Pradesh 283110, India","place_id":"ChIJjXlTSliRczkRQPvBkGfUkwg"}}],["Tilak Dwar, Mathura, Uttar Pradesh 281001, India",{"value":{"location":{"type":"Point","coordinates":[77.68474909999999,27.4990503]},"description":"Tilak Dwar, Mathura, Uttar Pradesh 281001, India","place_id":"ChIJczBP2BBxczkR3VBGXKVP8dE"}}],["Har Ki Pauri, Haridwar, Uttarakhand 249401, India",{"value":{"location":{"type":"Point","coordinates":[78.1749687,29.9573607]},"description":"Har Ki Pauri, Haridwar, Uttarakhand 249401, India","place_id":"ChIJQTWd8RlHCTkR47b9MveMQ4c"}}],["Bharatpur, Rajasthan, India",{"value":{"location":{"type":"Point","coordinates":[77.5029996,27.2151863]},"description":"Bharatpur, Rajasthan, India","place_id":"ChIJb3NahAqjczkRCM7ukzUQD1o"}}],["Lakhimpur, Uttar Pradesh, India",{"value":{"location":{"type":"Point","coordinates":[80.7787163,27.9462395]},"description":"Lakhimpur, Uttar Pradesh, India","place_id":"ChIJD4oTUBs1nzkRcGz7awjib_8"}}],["Delhi Sarai Rohilla, Guru Gobind Singh Marg, Railway Officers Colony, Sarai Rohilla, New Delhi, Delhi, 110005, India",{"value":{"location":{"type":"Point","coordinates":[77.1852469,28.6627512]},"description":"Delhi Sarai Rohilla, Guru Gobind Singh Marg, Railway Officers Colony, Sarai Rohilla, New Delhi, Delhi, 110005, India","place_id":"ChIJubEs-oYCDTkRxFNCZtPJoWU"}}],["Vrindavan, Uttar Pradesh, India",{"value":{"location":{"type":"Point","coordinates":[77.6593394,27.5650088]},"description":"Vrindavan, Uttar Pradesh, India","place_id":"ChIJCSOaXstvczkRzvOqX0w3aJg"}}],["Faridabad, Haryana, India",{"value":{"location":{"type":"Point","coordinates":[77.3177894,28.4089123]},"description":"Faridabad, Haryana, India","place_id":"ChIJsSSk9RXcDDkR8uBQyHYF9eQ"}}],["Bina, Madhya Pradesh 470113, India",{"value":{"location":{"type":"Point","coordinates":[78.19744469999999,24.1796159]},"description":"Bina, Madhya Pradesh 470113, India","place_id":"ChIJjfW8fbBueTkRvCsQ5w2Sa2A"}}],["Bhopal, Madhya Pradesh, India",{"value":{"location":{"type":"Point","coordinates":[77.412615,23.2599333]},"description":"Bhopal, Madhya Pradesh, India","place_id":"ChIJvY_Wj49CfDkR-NRy1RZXFQI"}}],["Jabalpur, Madhya Pradesh, India",{"value":{"location":{"type":"Point","coordinates":[79.9338798,23.1685786]},"description":"Jabalpur, Madhya Pradesh, India","place_id":"ChIJfam2DxqugTkRueNDvBYGAkQ"}}],["Kanpur, Uttar Pradesh, India",{"value":{"location":{"type":"Point","coordinates":[80.3318736,26.449923]},"description":"Kanpur, Uttar Pradesh, India","place_id":"ChIJb8QnsXBHnDkRQXu-nyoweBc"}}],["Hathras, Uttar Pradesh 204101, India",{"value":{"location":{"type":"Point","coordinates":[78.0492265,27.5980718]},"description":"Hathras, Uttar Pradesh 204101, India","place_id":"ChIJNXnCJjKbdDkR9MLtXkC6gRo"}}],["Raya, Uttar Pradesh 281204, India",{"value":{"location":{"type":"Point","coordinates":[77.7893788,27.5563367]},"description":"Raya, Uttar Pradesh 281204, India","place_id":"ChIJwaO7Wdh6czkRhH2ru_mTKNs"}}],["Agra, Uttar Pradesh, India",{"value":{"location":{"type":"Point","coordinates":[78.00807449999999,27.1766701]},"description":"Agra, Uttar Pradesh, India","place_id":"ChIJ2UEvfIUNdDkRQjtSqTjvSng"}}],["Aligarh, Uttar Pradesh, India",{"value":{"location":{"type":"Point","coordinates":[78.0880129,27.8973944]},"description":"Aligarh, Uttar Pradesh, India","place_id":"ChIJi5xFhoakdDkREzYybSdn2ZU"}}],["Salasar, Rajasthan, India",{"value":{"location":{"type":"Point","coordinates":[74.7249281,27.7254672]},"description":"Salasar, Rajasthan, India","place_id":"ChIJAXHauihMazkRSrCcF7nljIs"}}],["Delhi, India",{"value":{"location":{"type":"Point","coordinates":[77.10249019999999,28.7040592]},"description":"Delhi, India","place_id":"ChIJLbZ-NFv9DDkRQJY4FbcFcgM"}}],["Indira Gandhi Int'l T3 Rd, New Delhi, Delhi 110037, India",{"value":{"location":{"type":"Point","coordinates":[77.0971532,28.5544111]},"description":"Indira Gandhi Int'l T3 Rd, New Delhi, Delhi 110037, India","place_id":"EjlJbmRpcmEgR2FuZGhpIEludCdsIFQzIFJkLCBOZXcgRGVsaGksIERlbGhpIDExMDAzNywgSW5kaWEiLiosChQKEgljjIaJiBsNOREr8Rr-jbds9RIUChIJLbZ-NFv9DDkRzk0gTkm3wlI"}}],["Mathura, Uttar Pradesh, India",{"value":{"location":{"type":"Point","coordinates":[77.673673,27.4924134]},"description":"Mathura, Uttar Pradesh, India","place_id":"ChIJBVJNPRZxczkRpQ7h752gc0I"}}]]